<line-info name="日比谷線" color="#9caeb7" code="H">
 <stations>
  <station idx="0" code="01" name="中目黒" latitude="35.644444" longitude="139.699167" />
  <station idx="1" code="02" name="恵比寿" latitude="35.647361" longitude="139.709028" />
  <station idx="2" code="03" name="広尾" latitude="35.652222" longitude="139.722222" />
  <station idx="3" code="04" name="六本木" latitude="35.662778" longitude="139.731389" />
  <station idx="4" code="05" name="神谷町" latitude="35.662978" longitude="139.745069" />
  <station idx="5" code="06" name="霞ヶ関" latitude="35.673806" longitude="139.750944" />
  <station idx="6" code="07" name="日比谷" latitude="35.675" longitude="139.759722" />
  <station idx="7" code="08" name="銀座" latitude="35.671944" longitude="139.763889" />
  <station idx="8" code="09" name="東銀座" latitude="35.669722" longitude="139.766972" />
  <station idx="9" code="10" name="築地" latitude="35.668111" longitude="139.772583" />
  <station idx="10" code="11" name="八丁堀" latitude="35.675" longitude="139.777083" />
  <station idx="11" code="12" name="茅場町" latitude="35.679944" longitude="139.780139" />
  <station idx="12" code="13" name="人形町" latitude="35.686306" longitude="139.782278" />
  <station idx="13" code="14" name="小伝馬町" latitude="35.69075" longitude="139.778472" />
  <station idx="14" code="15" name="秋葉原" latitude="35.698611" longitude="139.7755" />
  <station idx="15" code="16" name="仲御徒町" latitude="35.706556" longitude="139.776194" />
  <station idx="16" code="17" name="上野" latitude="35.711389" longitude="139.777167" />
  <station idx="17" code="18" name="入谷" latitude="35.720722" longitude="139.784583" />
  <station idx="18" code="19" name="三ノ輪" latitude="35.729528" longitude="139.791306" />
  <station idx="19" code="20" name="南千住" latitude="35.7325" longitude="139.798889" />
  <station idx="20" code="21" name="北千住" latitude="35.749542" longitude="139.804503" />
 </stations>
 <links>
  <link begin-idx="0" end-idx="1" kilometers="1.0" minutes="3" />
  <link begin-idx="1" end-idx="2" kilometers="1.5" minutes="3" />
  <link begin-idx="2" end-idx="3" kilometers="1.7" minutes="3" />
  <link begin-idx="3" end-idx="4" kilometers="1.5" minutes="3" />
  <link begin-idx="4" end-idx="5" kilometers="1.3" minutes="2" />
  <link begin-idx="5" end-idx="6" kilometers="1.2" minutes="3" />
  <link begin-idx="6" end-idx="7" kilometers="0.4" minutes="1" />
  <link begin-idx="7" end-idx="8" kilometers="0.4" minutes="2" />
  <link begin-idx="8" end-idx="9" kilometers="0.6" minutes="1" />
  <link begin-idx="9" end-idx="10" kilometers="1.0" minutes="3" />
  <link begin-idx="10" end-idx="11" kilometers="0.5" minutes="1" />
  <link begin-idx="11" end-idx="12" kilometers="0.9" minutes="3" />
  <link begin-idx="12" end-idx="13" kilometers="0.6" minutes="1" />
  <link begin-idx="13" end-idx="14" kilometers="0.9" minutes="2" />
  <link begin-idx="14" end-idx="15" kilometers="1.0" minutes="2" />
  <link begin-idx="15" end-idx="16" kilometers="0.5" minutes="1" />
  <link begin-idx="16" end-idx="17" kilometers="1.2" minutes="2" />
  <link begin-idx="17" end-idx="18" kilometers="1.2" minutes="2" />
  <link begin-idx="18" end-idx="19" kilometers="0.8" minutes="2" />
  <link begin-idx="19" end-idx="20" kilometers="2.1" minutes="3" />
 </links>
 <changes>
  <!-- 霞ヶ関 -->
  <change idx="5">
   <line name="丸ノ内線" color="#e60012" code="M" />
   <station name="霞ヶ関" code="15" />
  </change>
  <change idx="5">
   <line name="千代田線" color="#009944" code="C" />
   <station name="霞ヶ関" code="08" />
  </change>
  <!-- 日比谷 -->
  <change idx="6">
   <line name="千代田線" color="#009944" code="C" />
   <station name="日比谷" code="09" />
  </change>
  <change idx="6">
   <line name="有楽町線" color="#d7c447" code="Y" />
   <station name="有楽町" code="18" />
  </change>
  <!-- 銀座 -->
  <change idx="7">
   <line name="銀座線" color="#f39700" code="G" />
   <station name="銀座" code="09" />
  </change>
  <change idx="7">
   <line name="丸ノ内線" color="#e60012" code="M" />
   <station name="銀座" code="16" />
  </change>
  <!-- 茅場町 -->
  <change idx="11">
   <line name="東西線" color="#00a7db" code="T" />
   <station name="茅場町" code="11" />
  </change>
  <!-- 仲御徒町 -->
  <change idx="15">
   <line name="銀座線" color="#f39700" code="G" />
   <station name="上野広小路" code="15" />
  </change>
  <!-- 上野 -->
  <change idx="16">
   <line name="銀座線" color="#f39700" code="G" />
   <station name="上野" code="16" />
  </change>
  <!-- 北千住 -->
  <change idx="20">
   <line name="千代田線" color="#009944" code="C" />
   <station name="北千住" code="18" />
  </change>
 </changes>
</line-info>
